{"version": 0.6, "generator": "Overpass API 0.7.62.11 87bfad18", "osm3s": {"timestamp_osm_base": "2026-04-20T15:41:00Z", "copyright": "The data included in this document is from www.openstreetmap.org. The data is made available under ODbL."}, "elements": [{"type": "node", "id": 370969659, "lat": 13.0377933, "lon": 80.1349425, "tags": {"amenity": "bus_station", "name": "Ayyapanthangal"}}, {"type": "node", "id": 370977751, "lat": 13.0465921, "lon": 80.1197732, "tags": {"amenity": "fuel", "brand": "Hindustan Petroleum", "brand:wikidata": "Q1619375", "name": "HP", "official_name": "Hindustan Petroleum"}}, {"type": "node", "id": 370977763, "lat": 13.0402991, "lon": 80.1304112, "tags": {"amenity": "fuel", "brand": "Indian Oil", "brand:wikidata": "Q1289348", "brand:wikipedia": "en:Indian Oil Corporation", "name": "Indian Oil"}}, {"type": "node", "id": 370977767, "lat": 13.0386047, "lon": 80.1330017, "tags": {"amenity": "fuel", "brand": "Bharat Petroleum", "brand:wikidata": "Q854826", "created_by": "Potlatch 0.10f", "name": "Bharat Petroleum"}}, {"type": "node", "id": 370977769, "lat": 13.0421889, "lon": 80.1237763, "tags": {"amenity": "fuel", "created_by": "Potlatch 0.10f", "name": "Hindustan Petroleum"}}, {"type": "node", "id": 384728847, "lat": 13.0501114, "lon": 80.1034119, "tags": {"amenity": "place_of_worship", "name": "CSI Wesley Church", "religion": "christian"}}, {"type": "node", "id": 384730701, "lat": 13.0501281, "lon": 80.1059439}, {"type": "node", "id": 384730702, "lat": 13.0499693, "lon": 80.1067164}, {"type": "node", "id": 384730703, "lat": 13.0512402, "lon": 80.1069481}, {"type": "node", "id": 384730704, "lat": 13.051374, "lon": 80.106107}, {"type": "node", "id": 384730705, "lat": 13.05068, "lon": 80.1060813}, {"type": "node", "id": 384730834, "lat": 13.0486482, "lon": 80.1073945}, {"type": "node", "id": 384730835, "lat": 13.0499944, "lon": 80.1078322}, {"type": "node", "id": 384730836, "lat": 13.0515579, "lon": 80.1079524}, {"type": "node", "id": 384730837, "lat": 13.0517502, "lon": 80.108639}, {"type": "node", "id": 384730838, "lat": 13.0514074, "lon": 80.1091454}, {"type": "node", "id": 384730839, "lat": 13.051073, "lon": 80.109051}, {"type": "node", "id": 384730840, "lat": 13.0506633, "lon": 80.1095488}, {"type": "node", "id": 384730841, "lat": 13.0497937, "lon": 80.1088879}, {"type": "node", "id": 384730842, "lat": 13.0496515, "lon": 80.1089137}, {"type": "node", "id": 384730843, "lat": 13.0493254, "lon": 80.1085789}, {"type": "node", "id": 384730844, "lat": 13.0483388, "lon": 80.1079867}, {"type": "node", "id": 384730951, "lat": 13.0503706, "lon": 80.1074288, "tags": {"amenity": "place_of_worship", "name": "St Marys Church", "religion": "christian"}}, {"type": "node", "id": 384732740, "lat": 13.0454875, "lon": 80.1072915}, {"type": "node", "id": 384732741, "lat": 13.046307, "lon": 80.1069996}, {"type": "node", "id": 384732742, "lat": 13.0466832, "lon": 80.1065877}, {"type": "node", "id": 384732743, "lat": 13.0469592, "lon": 80.1059268}, {"type": "node", "id": 384732744, "lat": 13.0492669, "lon": 80.104974}, {"type": "node", "id": 384732745, "lat": 13.0486314, "lon": 80.1068451}, {"type": "node", "id": 384732746, "lat": 13.0480294, "lon": 80.1080639}, {"type": "node", "id": 384732747, "lat": 13.0475277, "lon": 80.1089222}, {"type": "node", "id": 384732748, "lat": 13.0462568, "lon": 80.1084673}, {"type": "node", "id": 384732749, "lat": 13.04573, "lon": 80.1089051}, {"type": "node", "id": 384732750, "lat": 13.0451949, "lon": 80.1074202}, {"type": "node", "id": 384733722, "lat": 13.0448688, "lon": 80.1116173}, {"type": "node", "id": 384733724, "lat": 13.0454959, "lon": 80.1093342}, {"type": "node", "id": 384733727, "lat": 13.043347, "lon": 80.1088793}, {"type": "node", "id": 384733730, "lat": 13.0429122, "lon": 80.1089823}, {"type": "node", "id": 384733733, "lat": 13.0425192, "lon": 80.1099694}, {"type": "node", "id": 384733735, "lat": 13.0424358, "lon": 80.1102939}, {"type": "node", "id": 384733738, "lat": 13.0426664, "lon": 80.1112476}, {"type": "node", "id": 384735378, "lat": 13.047026, "lon": 80.1092227, "tags": {"amenity": "courthouse", "name": "Poonamallee Special Court"}}, {"type": "node", "id": 384735381, "lat": 13.046307, "lon": 80.1105616}, {"type": "node", "id": 384735382, "lat": 13.0461397, "lon": 80.1110852}, {"type": "node", "id": 384735383, "lat": 13.0451865, "lon": 80.1107762}, {"type": "node", "id": 384735384, "lat": 13.045337, "lon": 80.1102612}, {"type": "node", "id": 384735985, "lat": 13.0441748, "lon": 80.1146987, "tags": {"amenity": "cinema", "name": "Bagavathy Theatre"}}, {"type": "node", "id": 384744030, "lat": 13.0424941, "lon": 80.1109937}, {"type": "node", "id": 1391028864, "lat": 13.0379031, "lon": 80.1352823}, {"type": "node", "id": 1391574203, "lat": 13.0374646, "lon": 80.1352093}, {"type": "node", "id": 1391574205, "lat": 13.0375628, "lon": 80.1345046}, {"type": "node", "id": 1391574206, "lat": 13.0382027, "lon": 80.1345351}, {"type": "node", "id": 1833926660, "lat": 13.0575206, "lon": 80.127824, "tags": {"amenity": "hospital", "emergency": "yes", "name": "ACS Medical College And Hospital", "name:etymology:wikidata": "Q4647623"}}, {"type": "node", "id": 1833971623, "lat": 13.0574532, "lon": 80.1277565, "tags": {"amenity": "atm", "brand": "ICICI Bank", "brand:en": "ICICI Bank", "brand:wikidata": "Q1653258", "currency:INR": "yes", "drive_through": "no", "indoor": "yes", "note": "Contributors are requested to not edit the \"brand\", \"brand:en\", \"brand:wikidata\", \"operator\", \"operator:en\" and \"operator:wikidata\" tags. (2025/03/03)", "opening_hours": "24/7", "operator": "ICICI Bank", "operator:en": "ICICI Bank", "operator:wikidata": "Q1653258", "short_name": "ICICI"}}, {"type": "node", "id": 1891095299, "lat": 13.0295987, "lon": 80.1099151}, {"type": "node", "id": 1891095303, "lat": 13.0297321, "lon": 80.1105665}, {"type": "node", "id": 1891095310, "lat": 13.0300721, "lon": 80.1098129}, {"type": "node", "id": 1891095313, "lat": 13.0302056, "lon": 80.1104643}, {"type": "node", "id": 4451613721, "lat": 13.0551803, "lon": 80.1144732, "tags": {"amenity": "place_of_worship", "name": "Yema Lingam - Astalingam", "religion": "hindu"}}, {"type": "node", "id": 4524159391, "lat": 13.0363504, "lon": 80.1118875, "tags": {"amenity": "place_of_worship", "name": "Vaikundavasa Perumal Temple", "religion": "hindu"}}, {"type": "node", "id": 5119364492, "lat": 13.0554937, "lon": 80.1249153}, {"type": "node", "id": 5119364493, "lat": 13.0567011, "lon": 80.1251312}, {"type": "node", "id": 5119364494, "lat": 13.056817, "lon": 80.1242787}, {"type": "node", "id": 5119364495, "lat": 13.0569986, "lon": 80.1242906}, {"type": "node", "id": 5119364496, "lat": 13.0570333, "lon": 80.1239972}, {"type": "node", "id": 5119364497, "lat": 13.0577638, "lon": 80.1240405}, {"type": "node", "id": 5119364498, "lat": 13.0587859, "lon": 80.1243046}, {"type": "node", "id": 5119364499, "lat": 13.0590849, "lon": 80.1230483}, {"type": "node", "id": 5119364500, "lat": 13.058327, "lon": 80.1229484}, {"type": "node", "id": 5119364501, "lat": 13.0584174, "lon": 80.1224488}, {"type": "node", "id": 5119364502, "lat": 13.0565818, "lon": 80.1221776}, {"type": "node", "id": 5119364503, "lat": 13.0560465, "lon": 80.1219777}, {"type": "node", "id": 5119364504, "lat": 13.0557405, "lon": 80.1237264}, {"type": "node", "id": 5119364505, "lat": 13.0550313, "lon": 80.1236051}, {"type": "node", "id": 5119364506, "lat": 13.0551578, "lon": 80.1243514}, {"type": "node", "id": 5119364507, "lat": 13.055226, "lon": 80.1248256}, {"type": "node", "id": 5231956170, "lat": 13.0655003, "lon": 80.1108509, "tags": {"amenity": "college", "email": "saec@saec.ac.in", "name": "S.A Engineering College", "name:te": "\u0c36\u0c15\u0c41\u0c02\u0c24\u0c32 \u0c05\u0c2e\u0c4d\u0c2e\u0c3e\u0c33\u0c4d  \u0c07\u0c02\u0c1c\u0c28\u0c40\u0c30\u0c3f\u0c02\u0c17\u0c4d \u0c15\u0c33\u0c3e\u0c36\u0c3e\u0c32", "phone": "+914426801999", "website": "https://www.saec.ac.in/", "wikidata": "Q7387135", "wikipedia": "en:S.A. Engineering College"}}, {"type": "node", "id": 5985170214, "lat": 13.0645935, "lon": 80.1092238}, {"type": "node", "id": 5985170215, "lat": 13.0642225, "lon": 80.1096798}, {"type": "node", "id": 5985170216, "lat": 13.0642016, "lon": 80.1106508}, {"type": "node", "id": 5985170217, "lat": 13.064327, "lon": 80.1114071}, {"type": "node", "id": 5985170218, "lat": 13.0644315, "lon": 80.1123352}, {"type": "node", "id": 5985170219, "lat": 13.0663232, "lon": 80.1124264}, {"type": "node", "id": 5985170220, "lat": 13.066689, "lon": 80.1095028}, {"type": "node", "id": 5985170259, "lat": 13.0649173, "lon": 80.110759}, {"type": "node", "id": 5985170260, "lat": 13.0643792, "lon": 80.1106977}, {"type": "node", "id": 5985170261, "lat": 13.0645236, "lon": 80.1115365}, {"type": "node", "id": 5985170262, "lat": 13.0648226, "lon": 80.1115774}, {"type": "node", "id": 5985202292, "lat": 13.066114, "lon": 80.112138}, {"type": "node", "id": 5985202293, "lat": 13.0652883, "lon": 80.1120146}, {"type": "node", "id": 5985202294, "lat": 13.0652518, "lon": 80.1122131}, {"type": "node", "id": 5985202295, "lat": 13.0660983, "lon": 80.1122614}, {"type": "node", "id": 6886285241, "lat": 13.0579741, "lon": 80.1269402, "tags": {"addr:district": "CHENNAI", "addr:full": "Run by Dr MGR Educational Reaserch Institute, Poonamalle High Road, Chennai-Bangalore Highway NH4, Velappanchava, Chennai, Tamilndu", "addr:postcode": "600077", "addr:state": "Tamil Nadu", "amenity": "blood_bank", "contact:phone": "04423782176; 04423782186; 04426802133", "name": "ACS General Hospital", "opening_hours": "24/7", "operator:type": "private", "source": "OpenGovernmentData", "website": "https://www.acsmch.ac.in/"}}, {"type": "node", "id": 6915520031, "lat": 13.0459064, "lon": 80.1136042, "tags": {"addr:district": "Tiruvallur", "addr:full": "399, Trunk Road, Karayanchavadi, Poonamallee", "addr:postcode": "600056", "addr:state": "Tamil Nadu", "amenity": "hospital", "name": "D.R.R. Eye Hospital", "source": "OpenGovernmentData"}}, {"type": "node", "id": 6930464973, "lat": 13.0459338, "lon": 80.1131429, "tags": {"addr:district": "Tiruvallur", "addr:full": "No 387 Drr Complex 1st Floor,Opposite Indian Oil Petrol Pump,Trunk Road,Karaiyanchavadi,Chennai", "addr:postcode": "600056", "addr:state": "Tamil Nadu", "amenity": "hospital", "name": "Chinnammal Ent Hospital", "source": "OpenGovernmentData"}}, {"type": "node", "id": 6936695205, "lat": 13.0473037, "lon": 80.1121954, "tags": {"addr:district": "Chennai", "addr:full": "Chennai", "addr:postcode": "600017", "addr:state": "Tamil Nadu", "amenity": "clinic", "name": "Subamathi Clinic", "source": "OpenGovernmentData"}}, {"type": "node", "id": 6936708052, "lat": 13.0373801, "lon": 80.1130088, "tags": {"addr:district": "Chennai", "addr:full": "No.2, Jawaharlal Street, New Perungalathur", "addr:postcode": "600001", "addr:state": "Tamil Nadu", "amenity": "clinic", "name": "Sri Kamatchi Nursing Home", "source": "OpenGovernmentData"}}, {"type": "node", "id": 7185733585, "lat": 13.0606876, "lon": 80.1378102, "tags": {"amenity": "community_centre", "name": "SRS \u0ba4\u0bbf\u0bb0\u0bc1\u0bae\u0ba3 \u0bae\u0ba3\u0bcd\u0b9f\u0baa\u0bae\u0bcd", "name:en": "SRS Marriage Hall"}}, {"type": "node", "id": 7252333399, "lat": 13.05562, "lon": 80.124419, "tags": {"addr:district": "Thiruvallur", "addr:full": "Saveetha Dental College, Chennai, 162,Saveetha Dental College Campus Velappanchavadi, Poonamallee High Road", "addr:postcode": "600077", "addr:state": "Tamil Nadu", "addr:subdistrict": "Ambattur", "amenity": "hospital", "name": "Dr.Rai Cbcc Centre", "source": "OpenGovernmentData"}}, {"type": "node", "id": 7819840728, "lat": 13.0497791, "lon": 80.1146142, "tags": {"addr:district": "Tiruvallur", "addr:postcode": "600056", "addr:state": "Tamil Nadu", "amenity": "clinic", "name": "S.S Clinic", "source": "Local Knowledge"}}, {"type": "node", "id": 7819840730, "lat": 13.0341953, "lon": 80.1238143, "tags": {"addr:district": "Tiruvallur", "addr:full": "Kattupakkam", "addr:postcode": "600056", "addr:state": "Tamil Nadu", "amenity": "clinic", "name": "Dhanvantari Multispeciality Clinic", "source": "Local Knowledge"}}, {"type": "node", "id": 7819840767, "lat": 13.0532913, "lon": 80.1249542, "tags": {"addr:city": "Chennai", "addr:district": "Tiruvallur", "addr:full": "Poonamallee", "addr:housenumber": "10", "addr:postcode": "600077", "addr:state": "Tamil Nadu", "addr:street": "Mount Poonamallee Highway", "amenity": "hospital", "brand:wikidata": "Q3261955", "brand:wikipedia": "en:Aravind Eye Hospitals", "check_date": "2025-04-19", "email": "info.chennai@aravind.org", "emergency": "yes", "healthcare": "hospital", "healthcare:speciality": "ophthalmology", "name": "Aravind Eye Hospital", "opening_hours": "Mo-Sa 7:30-18:00; Su off", "operator": "Aravind Eye Hospitals", "operator:type": "private", "operator:wikidata": "Q3261955", "operator:wikipedia": "en:Aravind Eye Hospitals", "phone": "+91 44 4095 6100", "source": "Local Knowledge", "website": "https://aravind.org/"}}, {"type": "node", "id": 7819840772, "lat": 13.0494837, "lon": 80.1028024, "tags": {"addr:district": "Tiruvallur", "addr:full": "Poonamallee", "addr:postcode": "600056", "addr:state": "Tamil Nadu", "amenity": "clinic", "healthcare": "clinic", "name": "Champa Clinic", "source": "Local Knowledge"}}, {"type": "node", "id": 7819840805, "lat": 13.0437221, "lon": 80.1190471, "tags": {"addr:district": "Tiruvallur", "addr:full": "Sornapuri, Kattupakkam", "addr:postcode": "600056", "addr:state": "Tamil Nadu", "amenity": "dentist", "name": "Arjun Dental Care", "source": "Local Knowledge"}}, {"type": "node", "id": 7823212575, "lat": 13.034339, "lon": 80.1104925, "tags": {"addr:district": "Chengalpattu", "addr:full": "Sriram Nagar, Poonamallee", "addr:postcode": "600056", "addr:state": "Tamil Nadu", "amenity": "hospital", "name": "Deen Hospital", "source": "Local Knowledge"}}, {"type": "node", "id": 7823212591, "lat": 13.0358366, "lon": 80.1346656, "tags": {"addr:district": "Chengalpattu", "addr:full": "Ramachandra Nagar, Iyyapanthangal", "addr:postcode": "600056", "addr:state": "Tamil Nadu", "amenity": "clinic", "name": "Indhu Siddha Ayurveda Clinic", "source": "Local Knowledge"}}, {"type": "node", "id": 7823212597, "lat": 13.0371387, "lon": 80.1121067, "tags": {"addr:district": "Chengalpattu", "addr:full": "Kamachi Nagar, Mangadu", "addr:postcode": "600116", "addr:state": "Tamil Nadu", "amenity": "clinic", "name": "Indra Clinic", "source": "Local Knowledge"}}, {"type": "node", "id": 7823212624, "lat": 13.0441663, "lon": 80.1364773, "tags": {"addr:district": "Chengalpattu", "addr:full": "Subbiah Nagar, Iyyappanthangal", "addr:postcode": "600056", "addr:state": "Tamil Nadu", "amenity": "hospital", "name": "Kedar Hospital", "source": "Local Knowledge"}}, {"type": "node", "id": 7823212630, "lat": 13.0372175, "lon": 80.1136836, "tags": {"addr:district": "Chengalpattu", "addr:full": "Kamatchiamman Nagar, Poonamallee", "addr:postcode": "600122", "addr:state": "Tamil Nadu", "amenity": "hospital", "name": "Sai Nursing Home and Maternity Hospital", "source": "Local Knowledge"}}, {"type": "node", "id": 9427183945, "lat": 13.0530983, "lon": 80.1244772, "tags": {"addr:city": "Chennai", "addr:postcode": "600077", "amenity": "restaurant", "check_date": "2026-04-20", "cuisine": "indian", "diet:vegetarian": "yes", "name": "Vasantham Canteen"}}, {"type": "node", "id": 9994034313, "lat": 13.0399578, "lon": 80.1320627, "tags": {"amenity": "restaurant", "cuisine": "indian", "name": "Hotel Akshaya Bhavan"}}, {"type": "node", "id": 9994034342, "lat": 13.0414828, "lon": 80.1331364, "tags": {"amenity": "police"}}, {"type": "node", "id": 9994034401, "lat": 13.0398209, "lon": 80.1319519}, {"type": "node", "id": 9994034402, "lat": 13.0397749, "lon": 80.1321088}, {"type": "node", "id": 9994034403, "lat": 13.0401005, "lon": 80.1321815}, {"type": "node", "id": 9994034404, "lat": 13.0400334, "lon": 80.1324558}, {"type": "node", "id": 9994034405, "lat": 13.0401378, "lon": 80.1324788}, {"type": "node", "id": 9994034406, "lat": 13.040231, "lon": 80.1320514}, {"type": "node", "id": 9994034445, "lat": 13.0401285, "lon": 80.1309534, "tags": {"amenity": "school", "name": "Government Higher secondary school"}}, {"type": "node", "id": 10741550765, "lat": 13.0352881, "lon": 80.114521, "tags": {"addr:city": "chennai", "addr:postcode": "600122", "addr:street": "mangadu, Chennai", "amenity": "police", "name": "mangadu police station", "phone": "44 \u2013 27178126"}}, {"type": "node", "id": 11039623683, "lat": 13.0622198, "lon": 80.1354331, "tags": {"access": "private", "barrier": "gate"}}, {"type": "node", "id": 11395264421, "lat": 13.054185, "lon": 80.1210737}, {"type": "node", "id": 11395264422, "lat": 13.0541627, "lon": 80.1210706}, {"type": "node", "id": 11395264423, "lat": 13.0541603, "lon": 80.1210953}, {"type": "node", "id": 11395264424, "lat": 13.0541844, "lon": 80.1210987}, {"type": "node", "id": 11487145882, "lat": 13.056251, "lon": 80.1054718, "tags": {"amenity": "restaurant"}}, {"type": "node", "id": 11959665384, "lat": 13.0625984, "lon": 80.1355893}, {"type": "node", "id": 11959665385, "lat": 13.061961, "lon": 80.1353268}, {"type": "node", "id": 11959665386, "lat": 13.0619091, "lon": 80.1354789}, {"type": "node", "id": 11959665387, "lat": 13.0609494, "lon": 80.1350681}, {"type": "node", "id": 11959665388, "lat": 13.0611865, "lon": 80.1359088}, {"type": "node", "id": 11959665389, "lat": 13.0623723, "lon": 80.136255}, {"type": "node", "id": 12253480157, "lat": 13.0571704, "lon": 80.128149, "tags": {"amenity": "restaurant", "cuisine": "indian", "diet:non-vegetarian": "yes", "diet:vegetarian": "yes", "name": "Lasaka Home Made Foods", "opening_hours": "Mo-Sa 18:00-00:00", "phone": "+918610292382"}}, {"type": "node", "id": 13135440842, "lat": 13.055503, "lon": 80.1230486, "tags": {"amenity": "college", "name": "Saveetha school of management"}}, {"type": "way", "id": 33630537, "nodes": [384730701, 384730702, 384730703, 384730704, 384730705, 384730701], "tags": {"amenity": "school", "name": "Sarojini Girls HSS"}}, {"type": "way", "id": 33630558, "nodes": [384730834, 384730835, 384730836, 384730837, 384730838, 384730839, 384730840, 384730841, 384730842, 384730843, 384730844, 384730834], "tags": {"amenity": "school", "name": "Poonamallee Government HSS"}}, {"type": "way", "id": 33630846, "nodes": [384732740, 384732741, 384732742, 384732743, 384732744, 384732745, 384732746, 384732747, 384732748, 384732749, 384732750, 384732740], "tags": {"amenity": "school", "name": "Poonamallee Blind School"}}, {"type": "way", "id": 33630851, "nodes": [384733722, 384733724, 384733727, 384733730, 384733733, 384733735, 384744030, 384733738, 384733722], "tags": {"amenity": "college", "email": "rector@shschennai.org", "name": "Sacred Heart Seminary", "phone": "+91 44 2627 2171", "website": "https://www.shschennai.org/"}}, {"type": "way", "id": 33630904, "nodes": [384735381, 384735382, 384735383, 384735384, 384735381], "tags": {"amenity": "school", "name": "Don Guanella Major Seminary"}}, {"type": "way", "id": 125234690, "nodes": [1391574206, 1391574205, 1391574203, 1391028864, 1391574206], "tags": {"amenity": "bus_station", "landuse": "industrial", "operator": "mtc"}}, {"type": "way", "id": 178751075, "nodes": [1891095310, 1891095299, 1891095303, 1891095313, 1891095310], "tags": {"amenity": "place_of_worship", "name": "Kamakashi Amman Temple", "religion": "hindu"}}, {"type": "way", "id": 526445239, "nodes": [5119364492, 5119364493, 5119364494, 5119364495, 5119364496, 5119364497, 5119364498, 5119364499, 5119364500, 5119364501, 5119364502, 5119364503, 5119364504, 5119364505, 5119364506, 5119364507, 5119364492], "tags": {"amenity": "university", "name": "Saveetha University"}}, {"type": "way", "id": 634149700, "nodes": [5985170214, 5985170215, 5985170216, 5985170217, 5985170218, 5985170219, 5985170220, 5985170214], "tags": {"amenity": "college"}}, {"type": "way", "id": 634149714, "nodes": [5985170259, 5985170260, 5985170261, 5985170262, 5985170259], "tags": {"amenity": "parking_space"}}, {"type": "way", "id": 634153389, "nodes": [5985202292, 5985202293, 5985202294, 5985202295, 5985202292], "tags": {"amenity": "parking_space"}}, {"type": "way", "id": 1091137387, "nodes": [9994034401, 9994034402, 9994034403, 9994034404, 9994034405, 9994034406, 9994034401], "tags": {"amenity": "restaurant", "building": "yes"}}, {"type": "way", "id": 1228761218, "nodes": [11395264421, 11395264422, 11395264423, 11395264424, 11395264421], "tags": {"addr:city": "Chennai", "addr:district": "Tiruvallur", "addr:housenumber": "72/1", "addr:postcode": "600056", "addr:street": "Poonamalle Bypass Road", "amenity": "place_of_worship", "building": "yes", "name": "Sri Royale Selvaganapathy Temple", "religion": "hindu"}}, {"type": "way", "id": 1289802426, "nodes": [11959665384, 11039623683, 11959665385, 11959665386, 11959665387, 11959665388, 11959665389, 11959665384], "tags": {"alt_name": "Mehta Hospitals", "amenity": "hospital", "healthcare": "hospital", "name": "Dr. Mehta's Hospitals - Global Campus"}}]}